{
  "updated_at": "2026-03-15",
  "run_ts": "23106663607",
  "district_count": 10,
  "districts": [
    {
      "city": "",
      "lat": 20.5937,
      "lng": 78.9629,
      "total_hiring": 0,
      "total_layoffs": 0,
      "total_companies": 6,
      "it_companies": 4,
      "hiring_companies": 3,
      "layoff_companies": 1,
      "avg_sentiment": 0.1,
      "growth_score": 0.0,
      "updated_at": "2026-03-15"
    },
    {
      "city": "Ahmedabad",
      "lat": 23.0225,
      "lng": 72.5714,
      "total_hiring": 0,
      "total_layoffs": 0,
      "total_companies": 1,
      "it_companies": 0,
      "hiring_companies": 0,
      "layoff_companies": 0,
      "avg_sentiment": 0.0,
      "growth_score": 0.0,
      "updated_at": "2026-03-15"
    },
    {
      "city": "Bengaluru",
      "lat": 12.9716,
      "lng": 77.5946,
      "total_hiring": 0,
      "total_layoffs": 0,
      "total_companies": 6,
      "it_companies": 0,
      "hiring_companies": 0,
      "layoff_companies": 0,
      "avg_sentiment": 0.0,
      "growth_score": 0.0,
      "updated_at": "2026-03-15"
    },
    {
      "city": "Chennai",
      "lat": 13.0827,
      "lng": 80.2707,
      "total_hiring": 0,
      "total_layoffs": 0,
      "total_companies": 2,
      "it_companies": 0,
      "hiring_companies": 0,
      "layoff_companies": 0,
      "avg_sentiment": 0.0,
      "growth_score": 0.0,
      "updated_at": "2026-03-15"
    },
    {
      "city": "Delhi",
      "lat": 28.6139,
      "lng": 77.209,
      "total_hiring": 0,
      "total_layoffs": 0,
      "total_companies": 2,
      "it_companies": 0,
      "hiring_companies": 0,
      "layoff_companies": 0,
      "avg_sentiment": 0.0,
      "growth_score": 0.0,
      "updated_at": "2026-03-15"
    },
    {
      "city": "Gurugram",
      "lat": 28.4595,
      "lng": 77.0266,
      "total_hiring": 0,
      "total_layoffs": 0,
      "total_companies": 1,
      "it_companies": 0,
      "hiring_companies": 0,
      "layoff_companies": 0,
      "avg_sentiment": 0.0,
      "growth_score": 0.0,
      "updated_at": "2026-03-15"
    },
    {
      "city": "Hyderabad",
      "lat": 17.385,
      "lng": 78.4867,
      "total_hiring": 0,
      "total_layoffs": 0,
      "total_companies": 3,
      "it_companies": 0,
      "hiring_companies": 1,
      "layoff_companies": 0,
      "avg_sentiment": 0.133,
      "growth_score": 0.0,
      "updated_at": "2026-03-15"
    },
    {
      "city": "Mumbai",
      "lat": 19.076,
      "lng": 72.8777,
      "total_hiring": 0,
      "total_layoffs": 0,
      "total_companies": 3,
      "it_companies": 0,
      "hiring_companies": 0,
      "layoff_companies": 0,
      "avg_sentiment": 0.0,
      "growth_score": 0.0,
      "updated_at": "2026-03-15"
    },
    {
      "city": "Noida",
      "lat": 28.5355,
      "lng": 77.391,
      "total_hiring": 0,
      "total_layoffs": 0,
      "total_companies": 1,
      "it_companies": 0,
      "hiring_companies": 0,
      "layoff_companies": 0,
      "avg_sentiment": 0.0,
      "growth_score": 0.0,
      "updated_at": "2026-03-15"
    },
    {
      "city": "Pune",
      "lat": 18.5204,
      "lng": 73.8567,
      "total_hiring": 0,
      "total_layoffs": 0,
      "total_companies": 2,
      "it_companies": 0,
      "hiring_companies": 0,
      "layoff_companies": 0,
      "avg_sentiment": 0.0,
      "growth_score": 0.0,
      "updated_at": "2026-03-15"
    }
  ]
}