{
  "updated_at": "2026-03-15",
  "run_ts": "local-test-002",
  "district_count": 10,
  "districts": [
    {"city":"Bengaluru","lat":12.9716,"lng":77.5946,"total_hiring":2841,"total_layoffs":234,"total_companies":6,"it_companies":6,"hiring_companies":4,"layoff_companies":1,"avg_sentiment":0.4,"growth_score":43.5,"updated_at":"2026-03-15"},
    {"city":"Mumbai","lat":19.0760,"lng":72.8777,"total_hiring":1823,"total_layoffs":98,"total_companies":4,"it_companies":3,"hiring_companies":3,"layoff_companies":1,"avg_sentiment":0.3,"growth_score":31.1,"updated_at":"2026-03-15"},
    {"city":"Hyderabad","lat":17.3850,"lng":78.4867,"total_hiring":1678,"total_layoffs":145,"total_companies":4,"it_companies":4,"hiring_companies":3,"layoff_companies":1,"avg_sentiment":0.4,"growth_score":38.3,"updated_at":"2026-03-15"},
    {"city":"Chennai","lat":13.0827,"lng":80.2707,"total_hiring":1456,"total_layoffs":89,"total_companies":3,"it_companies":3,"hiring_companies":3,"layoff_companies":0,"avg_sentiment":0.3,"growth_score":28.9,"updated_at":"2026-03-15"},
    {"city":"Delhi","lat":28.6139,"lng":77.2090,"total_hiring":1234,"total_layoffs":1600,"total_companies":3,"it_companies":2,"hiring_companies":1,"layoff_companies":2,"avg_sentiment":-0.2,"growth_score":-12.2,"updated_at":"2026-03-15"},
    {"city":"Pune","lat":18.5204,"lng":73.8567,"total_hiring":892,"total_layoffs":45,"total_companies":3,"it_companies":3,"hiring_companies":3,"layoff_companies":0,"avg_sentiment":0.4,"growth_score":28.2,"updated_at":"2026-03-15"},
    {"city":"Kolkata","lat":22.5726,"lng":88.3639,"total_hiring":678,"total_layoffs":123,"total_companies":2,"it_companies":1,"hiring_companies":1,"layoff_companies":1,"avg_sentiment":0.0,"growth_score":27.8,"updated_at":"2026-03-15"},
    {"city":"Ahmedabad","lat":23.0225,"lng":72.5714,"total_hiring":745,"total_layoffs":67,"total_companies":2,"it_companies":1,"hiring_companies":2,"layoff_companies":0,"avg_sentiment":0.2,"growth_score":33.9,"updated_at":"2026-03-15"},
    {"city":"Jaipur","lat":26.9124,"lng":75.7873,"total_hiring":456,"total_layoffs":89,"total_companies":2,"it_companies":2,"hiring_companies":1,"layoff_companies":1,"avg_sentiment":0.0,"growth_score":18.4,"updated_at":"2026-03-15"},
    {"city":"Kochi","lat":9.9312,"lng":76.2673,"total_hiring":345,"total_layoffs":41,"total_companies":1,"it_companies":1,"hiring_companies":1,"layoff_companies":0,"avg_sentiment":0.2,"growth_score":15.1,"updated_at":"2026-03-15"}
  ]
}
